[{"station_code":"0900","station_name":"基隆","station_name_en":"Keelung","latitude":25.13191,"longitude":121.73837},{"station_code":"0910","station_name":"三坑","station_name_en":"Sankeng","latitude":25.12305,"longitude":121.74202},{"station_code":"0920","station_name":"八堵","station_name_en":"Badu","latitude":25.10838,"longitude":121.72904},{"station_code":"0930","station_name":"七堵","station_name_en":"Qidu","latitude":25.09294,"longitude":121.71415},{"station_code":"0940","station_name":"百福","station_name_en":"Baifu","latitude":25.07795,"longitude":121.69379},{"station_code":"0950","station_name":"五堵","station_name_en":"Wudu","latitude":25.07799,"longitude":121.66758},{"station_code":"0960","station_name":"汐止","station_name_en":"Xizhi","latitude":25.0679,"longitude":121.66113},{"station_code":"0970","station_name":"汐科","station_name_en":"Xike","latitude":25.06358,"longitude":121.65057},{"station_code":"0980","station_name":"南港","station_name_en":"Nangang","latitude":25.05348,"longitude":121.60706},{"station_code":"0990","station_name":"松山","station_name_en":"Songshan","latitude":25.04927,"longitude":121.57906},{"station_code":"1000","station_name":"臺北","station_name_en":"Taipei","latitude":25.04775,"longitude":121.51711},{"station_code":"1001","station_name":"臺北-環島","station_name_en":"Taipei Surround Island","latitude":25.04774,"longitude":121.51711},{"station_code":"1010","station_name":"萬華","station_name_en":"Wanhua","latitude":25.03342,"longitude":121.50081},{"station_code":"1020","station_name":"板橋","station_name_en":"Banqiao","latitude":25.01434,"longitude":121.46377},{"station_code":"1030","station_name":"浮洲","station_name_en":"Fuzhou","latitude":25.00419,"longitude":121.44477},{"station_code":"1040","station_name":"樹林","station_name_en":"Shulin","latitude":24.99123,"longitude":121.42442},{"station_code":"1050","station_name":"南樹林","station_name_en":"South Shulin","latitude":24.98044,"longitude":121.40884},{"station_code":"1060","station_name":"山佳","station_name_en":"Shanjia","latitude":24.97273,"longitude":121.39254},{"station_code":"1070","station_name":"鶯歌","station_name_en":"Yingge","latitude":24.95455,"longitude":121.35517},{"station_code":"1075","station_name":"鳳鳴","station_name_en":"Fengming","latitude":24.97268,"longitude":121.33658},{"station_code":"1080","station_name":"桃園","station_name_en":"Taoyuan","latitude":24.98902,"longitude":121.314},{"station_code":"1090","station_name":"內壢","station_name_en":"Neili","latitude":24.97281,"longitude":121.25826},{"station_code":"1100","station_name":"中壢","station_name_en":"Zhongli_Taoyuan","latitude":24.95321,"longitude":121.22531},{"station_code":"1110","station_name":"埔心","station_name_en":"Puxin","latitude":24.9197,"longitude":121.18321},{"station_code":"1120","station_name":"楊梅","station_name_en":"Yangmei","latitude":24.91427,"longitude":121.14637},{"station_code":"1130","station_name":"富岡","station_name_en":"Fugang","latitude":24.93445,"longitude":121.08308},{"station_code":"1140","station_name":"新富","station_name_en":"Xinfu","latitude":24.93109,"longitude":121.06751},{"station_code":"1150","station_name":"北湖","station_name_en":"Beihu","latitude":24.92218,"longitude":121.05575},{"station_code":"1160","station_name":"湖口","station_name_en":"Hukou","latitude":24.90298,"longitude":121.04384},{"station_code":"1170","station_name":"新豐","station_name_en":"Xinfeng","latitude":24.86939,"longitude":120.99626},{"station_code":"1180","station_name":"竹北","station_name_en":"Zhubei","latitude":24.83904,"longitude":121.00921},{"station_code":"1190","station_name":"北新竹","station_name_en":"North Hsinchu","latitude":24.80875,"longitude":120.98381},{"station_code":"1191","station_name":"千甲","station_name_en":"Qianjia","latitude":24.80657,"longitude":121.0034},{"station_code":"1192","station_name":"新莊","station_name_en":"Xinzhuang","latitude":24.78811,"longitude":121.02196},{"station_code":"1193","station_name":"竹中","station_name_en":"Zhuzhong","latitude":24.78145,"longitude":121.03141},{"station_code":"1194","station_name":"六家","station_name_en":"Liujia","latitude":24.80766,"longitude":121.03941},{"station_code":"1201","station_name":"上員","station_name_en":"Shangyuan","latitude":24.77776,"longitude":121.05582},{"station_code":"1202","station_name":"榮華","station_name_en":"Ronghua","latitude":24.74839,"longitude":121.08319},{"station_code":"1203","station_name":"竹東","station_name_en":"Zhudong","latitude":24.73823,"longitude":121.09472},{"station_code":"1204","station_name":"橫山","station_name_en":"Hengshan","latitude":24.72041,"longitude":121.11772},{"station_code":"1205","station_name":"九讚頭","station_name_en":"Jiuzantou","latitude":24.72062,"longitude":121.13622},{"station_code":"1206","station_name":"合興","station_name_en":"Hexing","latitude":24.71667,"longitude":121.15437},{"station_code":"1207","station_name":"富貴","station_name_en":"Fugui","latitude":24.71551,"longitude":121.16743},{"station_code":"1208","station_name":"內灣","station_name_en":"Neiwan","latitude":24.70535,"longitude":121.18255},{"station_code":"1210","station_name":"新竹","station_name_en":"Hsinchu","latitude":24.80157,"longitude":120.97157},{"station_code":"1220","station_name":"三姓橋","station_name_en":"Sanxingqiao","latitude":24.78731,"longitude":120.92844},{"station_code":"1230","station_name":"香山","station_name_en":"Xiangshan","latitude":24.76311,"longitude":120.91388},{"station_code":"1240","station_name":"崎頂","station_name_en":"Qiding","latitude":24.72291,"longitude":120.87183},{"station_code":"1250","station_name":"竹南","station_name_en":"Zhunan","latitude":24.68647,"longitude":120.88091},{"station_code":"2110","station_name":"談文","station_name_en":"Tanwen","latitude":24.65641,"longitude":120.85825},{"station_code":"2120","station_name":"大山","station_name_en":"Dashan","latitude":24.64565,"longitude":120.80376},{"station_code":"2130","station_name":"後龍","station_name_en":"Houlong","latitude":24.61621,"longitude":120.78731},{"station_code":"2140","station_name":"龍港","station_name_en":"Longgang","latitude":24.61169,"longitude":120.75812},{"station_code":"2150","station_name":"白沙屯","station_name_en":"Baishatun","latitude":24.56481,"longitude":120.70824},{"station_code":"2160","station_name":"新埔","station_name_en":"Xinpu","latitude":24.54018,"longitude":120.69518},{"station_code":"2170","station_name":"通霄","station_name_en":"Tongxiao","latitude":24.49141,"longitude":120.67843},{"station_code":"2180","station_name":"苑裡","station_name_en":"Yuanli","latitude":24.44344,"longitude":120.65146},{"station_code":"2190","station_name":"日南","station_name_en":"Rinan","latitude":24.37815,"longitude":120.65412},{"station_code":"2200","station_name":"大甲","station_name_en":"Dajia","latitude":24.34448,"longitude":120.62702},{"station_code":"2210","station_name":"臺中港","station_name_en":"Taichung Port","latitude":24.30441,"longitude":120.60231},{"station_code":"2220","station_name":"清水","station_name_en":"Qingshui","latitude":24.26364,"longitude":120.56918},{"station_code":"2230","station_name":"沙鹿","station_name_en":"Shalu","latitude":24.23702,"longitude":120.55752},{"station_code":"2240","station_name":"龍井","station_name_en":"Longjing","latitude":24.19748,"longitude":120.54335},{"station_code":"2250","station_name":"大肚","station_name_en":"Dadu","latitude":24.15417,"longitude":120.54249},{"station_code":"2260","station_name":"追分","station_name_en":"Zhuifen","latitude":24.12051,"longitude":120.57018},{"station_code":"3140","station_name":"造橋","station_name_en":"Zaoqiao","latitude":24.64186,"longitude":120.86721},{"station_code":"3150","station_name":"豐富","station_name_en":"Fengfu","latitude":24.60429,"longitude":120.82637},{"station_code":"3160","station_name":"苗栗","station_name_en":"Miaoli","latitude":24.57001,"longitude":120.82233},{"station_code":"3170","station_name":"南勢","station_name_en":"Nanshi","latitude":24.52246,"longitude":120.79154},{"station_code":"3180","station_name":"銅鑼","station_name_en":"Tongluo","latitude":24.48713,"longitude":120.78591},{"station_code":"3190","station_name":"三義","station_name_en":"Sanyi","latitude":24.42066,"longitude":120.77393},{"station_code":"3210","station_name":"泰安","station_name_en":"Tai'an","latitude":24.33146,"longitude":120.74181},{"station_code":"3220","station_name":"后里","station_name_en":"Houli","latitude":24.30933,"longitude":120.73288},{"station_code":"3230","station_name":"豐原","station_name_en":"Fengyuan","latitude":24.25438,"longitude":120.72374},{"station_code":"3240","station_name":"栗林","station_name_en":"Lilin","latitude":24.23461,"longitude":120.7106},{"station_code":"3250","station_name":"潭子","station_name_en":"Tanzi","latitude":24.21214,"longitude":120.70564},{"station_code":"3260","station_name":"頭家厝","station_name_en":"Toujiacuo","latitude":24.19572,"longitude":120.70398},{"station_code":"3270","station_name":"松竹","station_name_en":"Songzhu","latitude":24.18035,"longitude":120.70193},{"station_code":"3280","station_name":"太原","station_name_en":"Taiyuan","latitude":24.16449,"longitude":120.69988},{"station_code":"3290","station_name":"精武","station_name_en":"Jingwu","latitude":24.14887,"longitude":120.69784},{"station_code":"3300","station_name":"臺中","station_name_en":"Taichung","latitude":24.13728,"longitude":120.68691},{"station_code":"3310","station_name":"五權","station_name_en":"Wuquan","latitude":24.12877,"longitude":120.66654},{"station_code":"3320","station_name":"大慶","station_name_en":"Daqing","latitude":24.11911,"longitude":120.64795},{"station_code":"3330","station_name":"烏日","station_name_en":"Wuri","latitude":24.10867,"longitude":120.62244},{"station_code":"3340","station_name":"新烏日","station_name_en":"Xinwuri","latitude":24.10937,"longitude":120.61421},{"station_code":"3350","station_name":"成功","station_name_en":"Chenggong","latitude":24.11424,"longitude":120.59021},{"station_code":"3360","station_name":"彰化","station_name_en":"Changhua","latitude":24.08177,"longitude":120.53854},{"station_code":"3370","station_name":"花壇","station_name_en":"Huatan","latitude":24.02502,"longitude":120.53742},{"station_code":"3380","station_name":"大村","station_name_en":"Dacun","latitude":23.99002,"longitude":120.56062},{"station_code":"3390","station_name":"員林","station_name_en":"Yuanlin","latitude":23.95947,"longitude":120.56977},{"station_code":"3400","station_name":"永靖","station_name_en":"Yongjing","latitude":23.92808,"longitude":120.57173},{"station_code":"3410","station_name":"社頭","station_name_en":"Shetou","latitude":23.89573,"longitude":120.58077},{"station_code":"3420","station_name":"田中","station_name_en":"Tianzhong","latitude":23.85843,"longitude":120.59146},{"station_code":"3430","station_name":"二水","station_name_en":"Ershui","latitude":23.81321,"longitude":120.61805},{"station_code":"3431","station_name":"源泉","station_name_en":"Yuanquan","latitude":23.79845,"longitude":120.64211},{"station_code":"3432","station_name":"濁水","station_name_en":"Zhuoshui","latitude":23.83467,"longitude":120.70467},{"station_code":"3433","station_name":"龍泉","station_name_en":"Longquan","latitude":23.83521,"longitude":120.75014},{"station_code":"3434","station_name":"集集","station_name_en":"Jiji","latitude":23.82647,"longitude":120.78495},{"station_code":"3435","station_name":"水里","station_name_en":"Shuili","latitude":23.81845,"longitude":120.85332},{"station_code":"3436","station_name":"車埕","station_name_en":"Checheng","latitude":23.83263,"longitude":120.86572},{"station_code":"3450","station_name":"林內","station_name_en":"Linnei","latitude":23.75967,"longitude":120.61499},{"station_code":"3460","station_name":"石榴","station_name_en":"Shiliu","latitude":23.73167,"longitude":120.57998},{"station_code":"3470","station_name":"斗六","station_name_en":"Douliu","latitude":23.71184,"longitude":120.54099},{"station_code":"3480","station_name":"斗南","station_name_en":"Dounan","latitude":23.67257,"longitude":120.48089},{"station_code":"3490","station_name":"石龜","station_name_en":"Shigui","latitude":23.63951,"longitude":120.47106},{"station_code":"4050","station_name":"大林","station_name_en":"Dalin","latitude":23.60089,"longitude":120.45597},{"station_code":"4060","station_name":"民雄","station_name_en":"Minxiong","latitude":23.55522,"longitude":120.43165},{"station_code":"4070","station_name":"嘉北","station_name_en":"Jiabei","latitude":23.49981,"longitude":120.44851},{"station_code":"4080","station_name":"嘉義","station_name_en":"Chiayi","latitude":23.47927,"longitude":120.44061},{"station_code":"4090","station_name":"水上","station_name_en":"Shuishang","latitude":23.43398,"longitude":120.39971},{"station_code":"4100","station_name":"南靖","station_name_en":"Nanjing","latitude":23.41344,"longitude":120.38654},{"station_code":"4110","station_name":"後壁","station_name_en":"Houbi","latitude":23.36626,"longitude":120.36058},{"station_code":"4120","station_name":"新營","station_name_en":"Xinying","latitude":23.30673,"longitude":120.32307},{"station_code":"4130","station_name":"柳營","station_name_en":"Liuying","latitude":23.27762,"longitude":120.32252},{"station_code":"4140","station_name":"林鳳營","station_name_en":"Linfengying","latitude":23.24259,"longitude":120.32107},{"station_code":"4150","station_name":"隆田","station_name_en":"Longtian","latitude":23.19271,"longitude":120.31917},{"station_code":"4160","station_name":"拔林","station_name_en":"Balin","latitude":23.17284,"longitude":120.32125},{"station_code":"4170","station_name":"善化","station_name_en":"Shanhua","latitude":23.13333,"longitude":120.30653},{"station_code":"4180","station_name":"南科","station_name_en":"Nanke","latitude":23.10726,"longitude":120.30202},{"station_code":"4190","station_name":"新市","station_name_en":"Xinshi","latitude":23.06823,"longitude":120.29004},{"station_code":"4200","station_name":"永康","station_name_en":"Yongkang","latitude":23.03825,"longitude":120.25347},{"station_code":"4210","station_name":"大橋","station_name_en":"Daqiao","latitude":23.01923,"longitude":120.22429},{"station_code":"4220","station_name":"臺南","station_name_en":"Tainan","latitude":22.99681,"longitude":120.21295},{"station_code":"4250","station_name":"保安","station_name_en":"Bao'an","latitude":22.93296,"longitude":120.23158},{"station_code":"4260","station_name":"仁德","station_name_en":"Rende","latitude":22.92354,"longitude":120.24054},{"station_code":"4270","station_name":"中洲","station_name_en":"Zhongzhou","latitude":22.90446,"longitude":120.25284},{"station_code":"4271","station_name":"長榮大學","station_name_en":"Chang Jung Christian University","latitude":22.90729,"longitude":120.27263},{"station_code":"4272","station_name":"沙崙","station_name_en":"Shalun","latitude":22.92407,"longitude":120.28622},{"station_code":"4290","station_name":"大湖","station_name_en":"Dahu","latitude":22.87821,"longitude":120.25384},{"station_code":"4300","station_name":"路竹","station_name_en":"Luzhu","latitude":22.85404,"longitude":120.26619},{"station_code":"4310","station_name":"岡山","station_name_en":"Gangshan","latitude":22.79223,"longitude":120.30004},{"station_code":"4320","station_name":"橋頭","station_name_en":"Qiaotou","latitude":22.76098,"longitude":120.31011},{"station_code":"4330","station_name":"楠梓","station_name_en":"Nanzi","latitude":22.72696,"longitude":120.32425},{"station_code":"4340","station_name":"新左營","station_name_en":"Xinzuoying","latitude":22.68754,"longitude":120.30678},{"station_code":"4350","station_name":"左營","station_name_en":"Zuoying","latitude":22.67445,"longitude":120.29401},{"station_code":"4360","station_name":"內惟","station_name_en":"Neiwei","latitude":22.66589,"longitude":120.28701},{"station_code":"4370","station_name":"美術館","station_name_en":"Museum of Fine Arts","latitude":22.65185,"longitude":120.28148},{"station_code":"4380","station_name":"鼓山","station_name_en":"Gushan","latitude":22.64181,"longitude":120.28071},{"station_code":"4390","station_name":"三塊厝","station_name_en":"Sankuaicuo","latitude":22.63931,"longitude":120.29414},{"station_code":"4400","station_name":"高雄","station_name_en":"Kaohsiung","latitude":22.63946,"longitude":120.30292},{"station_code":"4410","station_name":"民族","station_name_en":"Minzu","latitude":22.63879,"longitude":120.31494},{"station_code":"4420","station_name":"科工館","station_name_en":"Science And Technology Museum","latitude":22.63709,"longitude":120.32603},{"station_code":"4430","station_name":"正義","station_name_en":"Zhengyi","latitude":22.63425,"longitude":120.34245},{"station_code":"4440","station_name":"鳳山","station_name_en":"Fongshan","latitude":22.63145,"longitude":120.35745},{"station_code":"4450","station_name":"後庄","station_name_en":"Houzhuang","latitude":22.64016,"longitude":120.39131},{"station_code":"4460","station_name":"九曲堂","station_name_en":"Jiuqutang","latitude":22.65641,"longitude":120.42089},{"station_code":"4470","station_name":"六塊厝","station_name_en":"Liukuaicuo","latitude":22.66597,"longitude":120.46497},{"station_code":"5000","station_name":"屏東","station_name_en":"Pingtung","latitude":22.66905,"longitude":120.48617},{"station_code":"5010","station_name":"歸來","station_name_en":"Guilai","latitude":22.65246,"longitude":120.50263},{"station_code":"5020","station_name":"麟洛","station_name_en":"Linluo","latitude":22.63481,"longitude":120.51432},{"station_code":"5030","station_name":"西勢","station_name_en":"Xishi","latitude":22.61637,"longitude":120.52649},{"station_code":"5040","station_name":"竹田","station_name_en":"Zhutian","latitude":22.58658,"longitude":120.53978},{"station_code":"5050","station_name":"潮州","station_name_en":"Chaozhou","latitude":22.55008,"longitude":120.53604},{"station_code":"5060","station_name":"崁頂","station_name_en":"Kanding","latitude":22.51311,"longitude":120.51481},{"station_code":"5070","station_name":"南州","station_name_en":"Nanzhou","latitude":22.49207,"longitude":120.51174},{"station_code":"5080","station_name":"鎮安","station_name_en":"Zhen'an","latitude":22.45794,"longitude":120.51129},{"station_code":"5090","station_name":"林邊","station_name_en":"Linbian","latitude":22.43135,"longitude":120.51529},{"station_code":"5100","station_name":"佳冬","station_name_en":"Jiadong","latitude":22.41409,"longitude":120.54774},{"station_code":"5110","station_name":"東海","station_name_en":"Donghai","latitude":22.39897,"longitude":120.57236},{"station_code":"5120","station_name":"枋寮","station_name_en":"Fangliao","latitude":22.36802,"longitude":120.59511},{"station_code":"5130","station_name":"加祿","station_name_en":"Jialu","latitude":22.33085,"longitude":120.62445},{"station_code":"5140","station_name":"內獅","station_name_en":"Neishi","latitude":22.30617,"longitude":120.64331},{"station_code":"5160","station_name":"枋山","station_name_en":"Fangshan","latitude":22.26704,"longitude":120.65947},{"station_code":"5170","station_name":"枋野","station_name_en":"Fangye","latitude":22.28091,"longitude":120.71709},{"station_code":"5190","station_name":"大武","station_name_en":"Dawu","latitude":22.36526,"longitude":120.90094},{"station_code":"5200","station_name":"瀧溪","station_name_en":"Longxi","latitude":22.46102,"longitude":120.94176},{"station_code":"5210","station_name":"金崙","station_name_en":"Jinlun","latitude":22.53161,"longitude":120.96721},{"station_code":"5220","station_name":"太麻里","station_name_en":"Taimali","latitude":22.61883,"longitude":121.00492},{"station_code":"5230","station_name":"知本","station_name_en":"Zhiben","latitude":22.71022,"longitude":121.06068},{"station_code":"5240","station_name":"康樂","station_name_en":"Kangle","latitude":22.76426,"longitude":121.09356},{"station_code":"5998","station_name":"南方小站","station_name_en":"South","latitude":22.52755,"longitude":120.53658},{"station_code":"5999","station_name":"潮州基地","station_name_en":"Chaozhou Railway Workshop","latitude":22.52231,"longitude":120.52642},{"station_code":"6000","station_name":"臺東","station_name_en":"Taitung","latitude":22.79372,"longitude":121.1231},{"station_code":"6010","station_name":"山里","station_name_en":"Shanli","latitude":22.86194,"longitude":121.13778},{"station_code":"6020","station_name":"鹿野","station_name_en":"Luye","latitude":22.91249,"longitude":121.13701},{"station_code":"6030","station_name":"瑞源","station_name_en":"Ruiyuan","latitude":22.95604,"longitude":121.15901},{"station_code":"6040","station_name":"瑞和","station_name_en":"Ruihe","latitude":22.97997,"longitude":121.15595},{"station_code":"6050","station_name":"關山","station_name_en":"Guanshan","latitude":23.04566,"longitude":121.1643},{"station_code":"6060","station_name":"海端","station_name_en":"Haiduan","latitude":23.10292,"longitude":121.17676},{"station_code":"6070","station_name":"池上","station_name_en":"Chishang","latitude":23.12613,"longitude":121.21949},{"station_code":"6080","station_name":"富里","station_name_en":"Fuli","latitude":23.17924,"longitude":121.24864},{"station_code":"6090","station_name":"東竹","station_name_en":"Dongzhu","latitude":23.22605,"longitude":121.27842},{"station_code":"6100","station_name":"東里","station_name_en":"Dongli","latitude":23.27234,"longitude":121.30418},{"station_code":"6110","station_name":"玉里","station_name_en":"Yuli","latitude":23.33155,"longitude":121.31172},{"station_code":"6120","station_name":"三民","station_name_en":"Sanmin","latitude":23.42458,"longitude":121.34539},{"station_code":"6130","station_name":"瑞穗","station_name_en":"Ruisui","latitude":23.49775,"longitude":121.37657},{"station_code":"6140","station_name":"富源","station_name_en":"Fuyuan","latitude":23.58031,"longitude":121.38008},{"station_code":"6150","station_name":"大富","station_name_en":"Dafu","latitude":23.60571,"longitude":121.38963},{"station_code":"6160","station_name":"光復","station_name_en":"Guangfu","latitude":23.66631,"longitude":121.42117},{"station_code":"6170","station_name":"萬榮","station_name_en":"Wanrong","latitude":23.71199,"longitude":121.41907},{"station_code":"6180","station_name":"鳳林","station_name_en":"Fenglin","latitude":23.74634,"longitude":121.44701},{"station_code":"6190","station_name":"南平","station_name_en":"Nanping","latitude":23.78231,"longitude":121.45824},{"station_code":"6200","station_name":"林榮新光","station_name_en":"Linrong Shin Kong","latitude":23.80176,"longitude":121.46169},{"station_code":"6210","station_name":"豐田","station_name_en":"Fengtian","latitude":23.84842,"longitude":121.49618},{"station_code":"6220","station_name":"壽豐","station_name_en":"Shoufeng","latitude":23.86901,"longitude":121.51064},{"station_code":"6230","station_name":"平和","station_name_en":"Pinghe","latitude":23.88279,"longitude":121.52045},{"station_code":"6240","station_name":"志學","station_name_en":"Zhixue","latitude":23.90769,"longitude":121.5295},{"station_code":"6250","station_name":"吉安","station_name_en":"Ji'an","latitude":23.96823,"longitude":121.58266},{"station_code":"7000","station_name":"花蓮","station_name_en":"Hualien","latitude":23.99325,"longitude":121.6008},{"station_code":"7010","station_name":"北埔","station_name_en":"Beipu","latitude":24.03253,"longitude":121.60166},{"station_code":"7020","station_name":"景美","station_name_en":"Jingmei","latitude":24.09048,"longitude":121.61078},{"station_code":"7030","station_name":"新城","station_name_en":"Xincheng","latitude":24.12756,"longitude":121.64086},{"station_code":"7040","station_name":"崇德","station_name_en":"Chongde","latitude":24.17199,"longitude":121.65536},{"station_code":"7050","station_name":"和仁","station_name_en":"Heren","latitude":24.24225,"longitude":121.71182},{"station_code":"7060","station_name":"和平","station_name_en":"Heping","latitude":24.29839,"longitude":121.75344},{"station_code":"7070","station_name":"漢本","station_name_en":"Hanben","latitude":24.33543,"longitude":121.76838},{"station_code":"7080","station_name":"武塔","station_name_en":"Wuta","latitude":24.44879,"longitude":121.77601},{"station_code":"7090","station_name":"南澳","station_name_en":"Nan'ao","latitude":24.46342,"longitude":121.80103},{"station_code":"7100","station_name":"東澳","station_name_en":"Dong'ao","latitude":24.51827,"longitude":121.83072},{"station_code":"7110","station_name":"永樂","station_name_en":"Yongle","latitude":24.56843,"longitude":121.84458},{"station_code":"7120","station_name":"蘇澳","station_name_en":"Su'ao","latitude":24.59516,"longitude":121.85143},{"station_code":"7130","station_name":"蘇澳新","station_name_en":"Su'aoxin","latitude":24.60852,"longitude":121.82735},{"station_code":"7140","station_name":"新馬","station_name_en":"Xinma","latitude":24.61564,"longitude":121.8229},{"station_code":"7150","station_name":"冬山","station_name_en":"Dongshan","latitude":24.63633,"longitude":121.79211},{"station_code":"7160","station_name":"羅東","station_name_en":"Luodong","latitude":24.67791,"longitude":121.77464},{"station_code":"7170","station_name":"中里","station_name_en":"Zhongli_Yilan","latitude":24.69415,"longitude":121.77526},{"station_code":"7180","station_name":"二結","station_name_en":"Erjie","latitude":24.70528,"longitude":121.77409},{"station_code":"7190","station_name":"宜蘭","station_name_en":"Yilan","latitude":24.75443,"longitude":121.75839},{"station_code":"7200","station_name":"四城","station_name_en":"Sicheng","latitude":24.78681,"longitude":121.76271},{"station_code":"7210","station_name":"礁溪","station_name_en":"Jiaoxi","latitude":24.82703,"longitude":121.77535},{"station_code":"7220","station_name":"頂埔","station_name_en":"Dingpu","latitude":24.84391,"longitude":121.80913},{"station_code":"7230","station_name":"頭城","station_name_en":"Toucheng","latitude":24.85898,"longitude":121.82258},{"station_code":"7240","station_name":"外澳","station_name_en":"Wai'ao","latitude":24.88375,"longitude":121.84572},{"station_code":"7250","station_name":"龜山","station_name_en":"Guishan","latitude":24.90484,"longitude":121.8689},{"station_code":"7260","station_name":"大溪","station_name_en":"Daxi","latitude":24.93836,"longitude":121.88983},{"station_code":"7270","station_name":"大里","station_name_en":"Dali","latitude":24.96677,"longitude":121.92253},{"station_code":"7280","station_name":"石城","station_name_en":"Shicheng","latitude":24.97832,"longitude":121.94507},{"station_code":"7290","station_name":"福隆","station_name_en":"Fulong","latitude":25.01595,"longitude":121.94471},{"station_code":"7300","station_name":"貢寮","station_name_en":"Gongliao","latitude":25.02197,"longitude":121.90879},{"station_code":"7310","station_name":"雙溪","station_name_en":"Shuangxi","latitude":25.03851,"longitude":121.86654},{"station_code":"7320","station_name":"牡丹","station_name_en":"Mudan","latitude":25.05871,"longitude":121.85197},{"station_code":"7330","station_name":"三貂嶺","station_name_en":"Sandiaoling","latitude":25.06555,"longitude":121.82257},{"station_code":"7331","station_name":"大華","station_name_en":"Dahua","latitude":25.04998,"longitude":121.79732},{"station_code":"7332","station_name":"十分","station_name_en":"Shifen","latitude":25.04111,"longitude":121.77514},{"station_code":"7333","station_name":"望古","station_name_en":"Wanggu","latitude":25.03445,"longitude":121.76349},{"station_code":"7334","station_name":"嶺腳","station_name_en":"Lingjiao","latitude":25.03016,"longitude":121.74795},{"station_code":"7335","station_name":"平溪","station_name_en":"Pingxi","latitude":25.02571,"longitude":121.74019},{"station_code":"7336","station_name":"菁桐","station_name_en":"Jingtong","latitude":25.02391,"longitude":121.72391},{"station_code":"7350","station_name":"猴硐","station_name_en":"Houtong","latitude":25.08702,"longitude":121.82743},{"station_code":"7360","station_name":"瑞芳","station_name_en":"Ruifang","latitude":25.10893,"longitude":121.80624},{"station_code":"7361","station_name":"海科館","station_name_en":"Haikeguan","latitude":25.13754,"longitude":121.79997},{"station_code":"7362","station_name":"八斗子","station_name_en":"Badouzi","latitude":25.13528,"longitude":121.80286},{"station_code":"7380","station_name":"四腳亭","station_name_en":"Sijiaoting","latitude":25.10281,"longitude":121.76195},{"station_code":"7390","station_name":"暖暖","station_name_en":"Nuannuan","latitude":25.10231,"longitude":121.74031}]